{
    "status": "OK",
    "payload": {
        "stations": [
            {
                "crsCode": "FKC",
                "name": "Folkestone Central",
                "classification": "NORMAL",
                "dlrLuState": 1,
                "ojpState": 1,
                "kbState": 2,
                "darwinState": 4,
                "latitude": 51.08288631,
                "longitude": 1.169492303,
                "operator": "SE",
                "postcode": "CT19 5HB"
            },
            {
                "crsCode": "FKG",
                "name": "Falkirk Grahamston",
                "classification": "NORMAL",
                "dlrLuState": 1,
                "ojpState": 1,
                "kbState": 2,
                "darwinState": 4,
                "latitude": 56.0026016,
                "longitude": -3.785040515,
                "operator": "SR",
                "postcode": "FK2 7EZ"
            },
            {
                "crsCode": "FKK",
                "name": "Falkirk High",
                "classification": "NORMAL",
                "dlrLuState": 1,
                "ojpState": 1,
                "kbState": 2,
                "darwinState": 4,
                "latitude": 55.99180314,
                "longitude": -3.792238796,
                "operator": "SR",
                "postcode": "FK1 5QX"
            },
            {
                "crsCode": "FKW",
                "name": "Folkestone West",
                "classification": "NORMAL",
                "dlrLuState": 1,
                "ojpState": 1,
                "kbState": 2,
                "darwinState": 4,
                "latitude": 51.08458538,
                "longitude": 1.153912918,
                "operator": "SE",
                "postcode": "CT20 3PA"
            },
            {
                "crsCode": "FLE",
                "name": "Fleet",
                "classification": "NORMAL",
                "dlrLuState": 1,
                "ojpState": 1,
                "kbState": 2,
                "darwinState": 4,
                "latitude": 51.29063459,
                "longitude": -0.830808013,
                "operator": "SW",
                "postcode": "GU51 3QY"
            },
            {
                "crsCode": "FLD",
                "name": "Fauldhouse",
                "classification": "NORMAL",
                "dlrLuState": 1,
                "ojpState": 1,
                "kbState": 2,
                "darwinState": 4,
                "latitude": 55.82246535,
                "longitude": -3.719312799,
                "operator": "SR",
                "postcode": "EH47 9DJ"
            },
            {
                "crsCode": "FLF",
                "name": "Flowery Field",
                "classification": "NORMAL",
                "dlrLuState": 1,
                "ojpState": 1,
                "kbState": 2,
                "darwinState": 4,
                "latitude": 53.46164017,
                "longitude": -2.080837509,
                "operator": "NT",
                "postcode": "SK14 4BZ"
            },
            {
                "crsCode": "FLI",
                "name": "Flixton",
                "classification": "NORMAL",
                "dlrLuState": 1,
                "ojpState": 1,
                "kbState": 2,
                "darwinState": 4,
                "latitude": 53.4439722,
                "longitude": -2.383876093,
                "operator": "NT",
                "postcode": "M41 6JL"
            },
            {
                "crsCode": "BDF",
                "name": "Bodmin Mount Folly (Bus)",
                "classification": "NORMAL",
                "dlrLuState": 1,
                "ojpState": 1,
                "kbState": 0,
                "darwinState": 0,
                "latitude": 0.0,
                "longitude": 0.0,
                "operator": "",
                "postcode": ""
            },
            {
                "crsCode": "FLM",
                "name": "Flimby",
                "classification": "NORMAL",
                "dlrLuState": 1,
                "ojpState": 1,
                "kbState": 2,
                "darwinState": 4,
                "latitude": 54.68968694,
                "longitude": -3.521048022,
                "operator": "NT",
                "postcode": "CA15 8QN"
            },
            {
                "crsCode": "FLN",
                "name": "Flint",
                "classification": "NORMAL",
                "dlrLuState": 1,
                "ojpState": 1,
                "kbState": 2,
                "darwinState": 4,
                "latitude": 53.24974,
                "longitude": -3.13369,
                "operator": "AW",
                "postcode": "CH6 5NW"
            },
            {
                "crsCode": "BDQ",
                "name": "Bradford Forster Square",
                "classification": "NORMAL",
                "dlrLuState": 1,
                "ojpState": 1,
                "kbState": 2,
                "darwinState": 4,
                "latitude": 53.79693456,
                "longitude": -1.752961084,
                "operator": "NT",
                "postcode": "BD1 4HY"
            },
            {
                "crsCode": "FLT",
                "name": "Flitwick",
                "classification": "NORMAL",
                "dlrLuState": 1,
                "ojpState": 1,
                "kbState": 2,
                "darwinState": 4,
                "latitude": 52.00365,
                "longitude": -0.49526,
                "operator": "TL",
                "postcode": "MK45 1AJ"
            },
            {
                "crsCode": "FLW",
                "name": "Fulwell",
                "classification": "LONDON",
                "dlrLuState": 1,
                "ojpState": 1,
                "kbState": 2,
                "darwinState": 4,
                "latitude": 51.43393799,
                "longitude": -0.349469931,
                "operator": "SW",
                "postcode": "TW2 5NY"
            },
            {
                "crsCode": "FLX",
                "name": "Felixstowe",
                "classification": "NORMAL",
                "dlrLuState": 1,
                "ojpState": 1,
                "kbState": 2,
                "darwinState": 4,
                "latitude": 51.96708668,
                "longitude": 1.35045546,
                "operator": "LE",
                "postcode": "IP11 9UD"
            },
            {
                "crsCode": "FML",
                "name": "Frimley",
                "classification": "NORMAL",
                "dlrLuState": 1,
                "ojpState": 1,
                "kbState": 2,
                "darwinState": 4,
                "latitude": 51.31186216,
                "longitude": -0.746991209,
                "operator": "SW",
                "postcode": "GU16 7QH"
            },
            {
                "crsCode": "FMR",
                "name": "Falmer",
                "classification": "NORMAL",
                "dlrLuState": 1,
                "ojpState": 1,
                "kbState": 2,
                "darwinState": 4,
                "latitude": 50.86212415,
                "longitude": -0.087383616,
                "operator": "SN",
                "postcode": "BN1 9PU"
            },
            {
                "crsCode": "FMT",
                "name": "Falmouth Town",
                "classification": "NORMAL",
                "dlrLuState": 1,
                "ojpState": 1,
                "kbState": 2,
                "darwinState": 4,
                "latitude": 50.14836368,
                "longitude": -5.065272382,
                "operator": "GW",
                "postcode": "TR11 4AZ"
            },
            {
                "crsCode": "WOF",
                "name": "Worcester Foregate Street",
                "classification": "NORMAL",
                "dlrLuState": 1,
                "ojpState": 1,
                "kbState": 2,
                "darwinState": 4,
                "latitude": 52.19492976,
                "longitude": -2.221749159,
                "operator": "WM",
                "postcode": "WR1 1DB"
            },
            {
                "crsCode": "FNC",
                "name": "Farncombe",
                "classification": "NORMAL",
                "dlrLuState": 1,
                "ojpState": 1,
                "kbState": 2,
                "darwinState": 4,
                "latitude": 51.19715045,
                "longitude": -0.604545436,
                "operator": "SW",
                "postcode": "GU7 3NF"
            },
            {
                "crsCode": "FNB",
                "name": "Farnborough (Main)",
                "classification": "NORMAL",
                "dlrLuState": 1,
                "ojpState": 1,
                "kbState": 2,
                "darwinState": 4,
                "latitude": 51.29660513,
                "longitude": -0.755725906,
                "operator": "SW",
                "postcode": "GU14 7NL"
            },
            {
                "crsCode": "BFE",
                "name": "Bere Ferrers",
                "classification": "NORMAL",
                "dlrLuState": 1,
                "ojpState": 1,
                "kbState": 2,
                "darwinState": 4,
                "latitude": 50.45085678,
                "longitude": -4.181881299,
                "operator": "GW",
                "postcode": "PL20 7LT"
            },
            {
                "crsCode": "FNH",
                "name": "Farnham",
                "classification": "NORMAL",
                "dlrLuState": 1,
                "ojpState": 1,
                "kbState": 2,
                "darwinState": 4,
                "latitude": 51.21190211,
                "longitude": -0.792428907,
                "operator": "SW",
                "postcode": "GU9 8AD"
            },
            {
                "crsCode": "BFF",
                "name": "Blaenau Ffestiniog",
                "classification": "NORMAL",
                "dlrLuState": 1,
                "ojpState": 1,
                "kbState": 2,
                "darwinState": 4,
                "latitude": 52.99456764,
                "longitude": -3.938602387,
                "operator": "AW",
                "postcode": "LL41 3HE"
            },
            {
                "crsCode": "FNN",
                "name": "Farnborough North",
                "classification": "NORMAL",
                "dlrLuState": 1,
                "ojpState": 1,
                "kbState": 2,
                "darwinState": 4,
                "latitude": 51.30204484,
                "longitude": -0.743026722,
                "operator": "GW",
                "postcode": "GU14 8AQ"
            },
            {
                "crsCode": "FNR",
                "name": "Farningham Road",
                "classification": "NORMAL",
                "dlrLuState": 1,
                "ojpState": 1,
                "kbState": 2,
                "darwinState": 4,
                "latitude": 51.40139519,
                "longitude": 0.235524653,
                "operator": "SE",
                "postcode": "DA4 9JB"
            },
            {
                "crsCode": "FNT",
                "name": "Feniton",
                "classification": "NORMAL",
                "dlrLuState": 1,
                "ojpState": 1,
                "kbState": 2,
                "darwinState": 4,
                "latitude": 50.78644387,
                "longitude": -3.285357243,
                "operator": "SW",
                "postcode": "EX14 3BT"
            },
            {
                "crsCode": "FNW",
                "name": "Farnworth",
                "classification": "NORMAL",
                "dlrLuState": 1,
                "ojpState": 1,
                "kbState": 2,
                "darwinState": 4,
                "latitude": 53.55001733,
                "longitude": -2.387853772,
                "operator": "NT",
                "postcode": "BL4 7QZ"
            },
            {
                "crsCode": "FNV",
                "name": "Furness Vale",
                "classification": "NORMAL",
                "dlrLuState": 1,
                "ojpState": 1,
                "kbState": 2,
                "darwinState": 4,
                "latitude": 53.3487676,
                "longitude": -1.98883855,
                "operator": "NT",
                "postcode": "SK12 7QA"
            },
            {
                "crsCode": "FNY",
                "name": "Finchley Road & Frognal",
                "classification": "LONDON",
                "dlrLuState": 1,
                "ojpState": 1,
                "kbState": 2,
                "darwinState": 4,
                "latitude": 51.5502716361,
                "longitude": -0.1831375287,
                "operator": "LO",
                "postcode": "NW3 6EP"
            },
            {
                "crsCode": "FOD",
                "name": "Ford",
                "classification": "NORMAL",
                "dlrLuState": 1,
                "ojpState": 1,
                "kbState": 2,
                "darwinState": 4,
                "latitude": 50.82956237,
                "longitude": -0.578615542,
                "operator": "SN",
                "postcode": "BN18 0BH"
            },
            {
                "crsCode": "FOC",
                "name": "Falls of Cruachan",
                "classification": "NORMAL",
                "dlrLuState": 1,
                "ojpState": 1,
                "kbState": 2,
                "darwinState": 4,
                "latitude": 56.39386845,
                "longitude": -5.112457321,
                "operator": "SR",
                "postcode": "PA33 1AN"
            },
            {
                "crsCode": "FOH",
                "name": "Forest Hill",
                "classification": "LONDON",
                "dlrLuState": 1,
                "ojpState": 1,
                "kbState": 2,
                "darwinState": 4,
                "latitude": 51.4389253469,
                "longitude": -0.0533101412,
                "operator": "LO",
                "postcode": "SE23 3HB"
            },
            {
                "crsCode": "FOG",
                "name": "Forest Gate",
                "classification": "LONDON",
                "dlrLuState": 1,
                "ojpState": 1,
                "kbState": 2,
                "darwinState": 4,
                "latitude": 51.5494371822,
                "longitude": 0.0243617394,
                "operator": "XR",
                "postcode": "E7 0NF"
            },
            {
                "crsCode": "FOK",
                "name": "Four Oaks",
                "classification": "NORMAL",
                "dlrLuState": 1,
                "ojpState": 1,
                "kbState": 2,
                "darwinState": 4,
                "latitude": 52.57979147,
                "longitude": -1.828040569,
                "operator": "WM",
                "postcode": "B74 2TD"
            },
            {
                "crsCode": "FOR",
                "name": "Forres",
                "classification": "NORMAL",
                "dlrLuState": 1,
                "ojpState": 1,
                "kbState": 2,
                "darwinState": 4,
                "latitude": 57.61115529,
                "longitude": -3.62414618,
                "operator": "SR",
                "postcode": "IV36 3AD"
            },
            {
                "crsCode": "FOX",
                "name": "Foxfield",
                "classification": "NORMAL",
                "dlrLuState": 1,
                "ojpState": 1,
                "kbState": 2,
                "darwinState": 4,
                "latitude": 54.25876643,
                "longitude": -3.216071991,
                "operator": "NT",
                "postcode": "LA20 6BX"
            },
            {
                "crsCode": "FPK",
                "name": "Finsbury Park",
                "classification": "LONDON",
                "dlrLuState": 1,
                "ojpState": 1,
                "kbState": 2,
                "darwinState": 4,
                "latitude": 51.56478,
                "longitude": -0.10565,
                "operator": "GN",
                "postcode": "N4 2DH"
            },
            {
                "crsCode": "FRB",
                "name": "Fairbourne",
                "classification": "NORMAL",
                "dlrLuState": 1,
                "ojpState": 1,
                "kbState": 2,
                "darwinState": 4,
                "latitude": 52.69606153,
                "longitude": -4.049426098,
                "operator": "AW",
                "postcode": "LL38 2AQ"
            },
            {
                "crsCode": "FRE",
                "name": "Freshfield",
                "classification": "NORMAL",
                "dlrLuState": 1,
                "ojpState": 1,
                "kbState": 2,
                "darwinState": 4,
                "latitude": 53.56606861,
                "longitude": -3.071838001,
                "operator": "ME",
                "postcode": "L37 7DD"
            },
            {
                "crsCode": "FRD",
                "name": "Frodsham",
                "classification": "NORMAL",
                "dlrLuState": 1,
                "ojpState": 1,
                "kbState": 2,
                "darwinState": 4,
                "latitude": 53.29587868,
                "longitude": -2.723117879,
                "operator": "AW",
                "postcode": "WA6 7DN"
            },
            {
                "crsCode": "FRF",
                "name": "Fairfield",
                "classification": "NORMAL",
                "dlrLuState": 1,
                "ojpState": 1,
                "kbState": 2,
                "darwinState": 4,
                "latitude": 53.47146764,
                "longitude": -2.144582995,
                "operator": "NT",
                "postcode": "M34 5QA"
            },
            {
                "crsCode": "FRI",
                "name": "Frinton-on-Sea",
                "classification": "NORMAL",
                "dlrLuState": 1,
                "ojpState": 1,
                "kbState": 2,
                "darwinState": 4,
                "latitude": 51.83769342,
                "longitude": 1.243187057,
                "operator": "LE",
                "postcode": "CO13 9JT"
            },
            {
                "crsCode": "FRM",
                "name": "Fareham",
                "classification": "NORMAL",
                "dlrLuState": 1,
                "ojpState": 1,
                "kbState": 2,
                "darwinState": 4,
                "latitude": 50.85302175,
                "longitude": -1.192037892,
                "operator": "SW",
                "postcode": "PO16 0UT"
            },
            {
                "crsCode": "FRL",
                "name": "Fairlie",
                "classification": "NORMAL",
                "dlrLuState": 1,
                "ojpState": 1,
                "kbState": 2,
                "darwinState": 4,
                "latitude": 55.75192633,
                "longitude": -4.853261694,
                "operator": "SR",
                "postcode": "KA29 0DJ"
            },
            {
                "crsCode": "FRO",
                "name": "Frome",
                "classification": "NORMAL",
                "dlrLuState": 1,
                "ojpState": 1,
                "kbState": 2,
                "darwinState": 4,
                "latitude": 51.22726268,
                "longitude": -2.310012271,
                "operator": "GW",
                "postcode": "BA11 1RE"
            },
            {
                "crsCode": "FRN",
                "name": "Fearn",
                "classification": "NORMAL",
                "dlrLuState": 1,
                "ojpState": 1,
                "kbState": 2,
                "darwinState": 4,
                "latitude": 57.77809525,
                "longitude": -3.993733544,
                "operator": "SR",
                "postcode": "IV20 1RS"
            },
            {
                "crsCode": "FRS",
                "name": "Forsinard",
                "classification": "NORMAL",
                "dlrLuState": 1,
                "ojpState": 1,
                "kbState": 2,
                "darwinState": 4,
                "latitude": 58.35688312,
                "longitude": -3.89689083,
                "operator": "SR",
                "postcode": "KW13 6YT"
            },
            {
                "crsCode": "FRT",
                "name": "Frant",
                "classification": "NORMAL",
                "dlrLuState": 1,
                "ojpState": 1,
                "kbState": 2,
                "darwinState": 4,
                "latitude": 51.10402068,
                "longitude": 0.2945567,
                "operator": "SE",
                "postcode": "TN3 9BJ"
            },
            {
                "crsCode": "FRW",
                "name": "Fairwater",
                "classification": "NORMAL",
                "dlrLuState": 1,
                "ojpState": 1,
                "kbState": 2,
                "darwinState": 4,
                "latitude": 51.49390844,
                "longitude": -3.233850662,
                "operator": "AW",
                "postcode": "CF5 2NG"
            },
            {
                "crsCode": "FRY",
                "name": "Ferriby",
                "classification": "NORMAL",
                "dlrLuState": 1,
                "ojpState": 1,
                "kbState": 2,
                "darwinState": 4,
                "latitude": 53.71716886,
                "longitude": -0.507824927,
                "operator": "NT",
                "postcode": "HU14 3DJ"
            },
            {
                "crsCode": "FSB",
                "name": "Fishbourne (Sussex)",
                "classification": "NORMAL",
                "dlrLuState": 1,
                "ojpState": 1,
                "kbState": 2,
                "darwinState": 4,
                "latitude": 50.83903838,
                "longitude": -0.815088781,
                "operator": "SN",
                "postcode": "PO19 3QH"
            },
            {
                "crsCode": "FSG",
                "name": "Fishersgate",
                "classification": "NORMAL",
                "dlrLuState": 1,
                "ojpState": 1,
                "kbState": 2,
                "darwinState": 4,
                "latitude": 50.83422898,
                "longitude": -0.219411,
                "operator": "SN",
                "postcode": "BN4 1PL"
            },
            {
                "crsCode": "FSK",
                "name": "Fiskerton",
                "classification": "NORMAL",
                "dlrLuState": 1,
                "ojpState": 1,
                "kbState": 2,
                "darwinState": 4,
                "latitude": 53.06029715,
                "longitude": -0.912182054,
                "operator": "EM",
                "postcode": "NG25 0TR"
            },
            {
                "crsCode": "FST",
                "name": "London Fenchurch Street",
                "classification": "LONDON",
                "dlrLuState": 1,
                "ojpState": 1,
                "kbState": 2,
                "darwinState": 4,
                "latitude": 51.51157341,
                "longitude": -0.078591579,
                "operator": "CC",
                "postcode": "EC3M 4AJ"
            },
            {
                "crsCode": "FTM",
                "name": "Fort Matilda",
                "classification": "NORMAL",
                "dlrLuState": 1,
                "ojpState": 1,
                "kbState": 2,
                "darwinState": 4,
                "latitude": 55.95902085,
                "longitude": -4.795258693,
                "operator": "SR",
                "postcode": "PA16 7TS"
            },
            {
                "crsCode": "FTN",
                "name": "Fratton",
                "classification": "NORMAL",
                "dlrLuState": 1,
                "ojpState": 1,
                "kbState": 2,
                "darwinState": 4,
                "latitude": 50.79632515,
                "longitude": -1.073980501,
                "operator": "SW",
                "postcode": "PO1 5AW"
            },
            {
                "crsCode": "FTW",
                "name": "Fort William",
                "classification": "NORMAL",
                "dlrLuState": 1,
                "ojpState": 1,
                "kbState": 2,
                "darwinState": 4,
                "latitude": 56.82042348,
                "longitude": -5.106134421,
                "operator": "SR",
                "postcode": "PH33 6TQ"
            },
            {
                "crsCode": "SNK",
                "name": "Sankey For Penketh",
                "classification": "NORMAL",
                "dlrLuState": 1,
                "ojpState": 1,
                "kbState": 2,
                "darwinState": 4,
                "latitude": 53.39247998,
                "longitude": -2.650467264,
                "operator": "NT",
                "postcode": "WA5 1RQ"
            },
            {
                "crsCode": "SOF",
                "name": "South Woodham Ferrers",
                "classification": "NORMAL",
                "dlrLuState": 1,
                "ojpState": 1,
                "kbState": 2,
                "darwinState": 4,
                "latitude": 51.64966861,
                "longitude": 0.6066729,
                "operator": "LE",
                "postcode": "CM3 5NQ"
            },
            {
                "crsCode": "BNF",
                "name": "Briton Ferry",
                "classification": "NORMAL",
                "dlrLuState": 1,
                "ojpState": 1,
                "kbState": 2,
                "darwinState": 4,
                "latitude": 51.63789409,
                "longitude": -3.819278922,
                "operator": "AW",
                "postcode": "SA11 2NE"
            },
            {
                "crsCode": "FWY",
                "name": "Five Ways",
                "classification": "NORMAL",
                "dlrLuState": 1,
                "ojpState": 1,
                "kbState": 2,
                "darwinState": 4,
                "latitude": 52.47110355,
                "longitude": -1.912951496,
                "operator": "WM",
                "postcode": "B15 1SF"
            },
            {
                "crsCode": "FXN",
                "name": "Foxton",
                "classification": "NORMAL",
                "dlrLuState": 1,
                "ojpState": 1,
                "kbState": 2,
                "darwinState": 4,
                "latitude": 52.11913,
                "longitude": 0.056536,
                "operator": "GN",
                "postcode": "CB22 6SE"
            },
            {
                "crsCode": "FYS",
                "name": "Ferryside",
                "classification": "NORMAL",
                "dlrLuState": 1,
                "ojpState": 1,
                "kbState": 2,
                "darwinState": 4,
                "latitude": 51.76837024,
                "longitude": -4.369485229,
                "operator": "AW",
                "postcode": "SA17 5TD"
            },
            {
                "crsCode": "FZH",
                "name": "Frizinghall",
                "classification": "NORMAL",
                "dlrLuState": 1,
                "ojpState": 1,
                "kbState": 2,
                "darwinState": 4,
                "latitude": 53.81952623,
                "longitude": -1.768625862,
                "operator": "NT",
                "postcode": "BD9 4LD"
            },
            {
                "crsCode": "FZP",
                "name": "Furze Platt",
                "classification": "NORMAL",
                "dlrLuState": 1,
                "ojpState": 1,
                "kbState": 2,
                "darwinState": 4,
                "latitude": 51.53301767,
                "longitude": -0.728471069,
                "operator": "GW",
                "postcode": "SL6 7NY"
            },
            {
                "crsCode": "FZW",
                "name": "Fitzwilliam",
                "classification": "NORMAL",
                "dlrLuState": 1,
                "ojpState": 1,
                "kbState": 2,
                "darwinState": 4,
                "latitude": 53.63251073,
                "longitude": -1.373597322,
                "operator": "NT",
                "postcode": "WF9 5DA"
            },
            {
                "crsCode": "BTP",
                "name": "Braintree Freeport",
                "classification": "NORMAL",
                "dlrLuState": 1,
                "ojpState": 1,
                "kbState": 2,
                "darwinState": 4,
                "latitude": 51.86901047,
                "longitude": 0.567449428,
                "operator": "LE",
                "postcode": "CM77 8YH"
            },
            {
                "crsCode": "BYF",
                "name": "Broughty Ferry",
                "classification": "NORMAL",
                "dlrLuState": 1,
                "ojpState": 1,
                "kbState": 2,
                "darwinState": 4,
                "latitude": 56.4671506,
                "longitude": -2.873149715,
                "operator": "SR",
                "postcode": "DD5 2DX"
            },
            {
                "crsCode": "KLF",
                "name": "Kirkstall Forge",
                "classification": "NORMAL",
                "dlrLuState": 1,
                "ojpState": 1,
                "kbState": 2,
                "darwinState": 4,
                "latitude": 53.82402819,
                "longitude": -1.618512273,
                "operator": "NT",
                "postcode": "LS5 3NF"
            },
            {
                "crsCode": "GFF",
                "name": "Gilfach Fargoed",
                "classification": "NORMAL",
                "dlrLuState": 1,
                "ojpState": 1,
                "kbState": 2,
                "darwinState": 4,
                "latitude": 51.68424748,
                "longitude": -3.226577833,
                "operator": "AW",
                "postcode": "CF81 8LT"
            },
            {
                "crsCode": "CAI",
                "name": "Aberteifi/Cardigan Finches",
                "classification": "NORMAL",
                "dlrLuState": 1,
                "ojpState": 1,
                "kbState": 2,
                "darwinState": 4,
                "latitude": 0.0,
                "longitude": 0.0,
                "operator": "",
                "postcode": ""
            },
            {
                "crsCode": "XOF",
                "name": "Gosport Ferry",
                "classification": "NORMAL",
                "dlrLuState": 1,
                "ojpState": 1,
                "kbState": 0,
                "darwinState": 0,
                "latitude": 0.0,
                "longitude": 0.0,
                "operator": "",
                "postcode": ""
            },
            {
                "crsCode": "GNH",
                "name": "Greenhithe for Bluewater",
                "classification": "NORMAL",
                "dlrLuState": 1,
                "ojpState": 1,
                "kbState": 2,
                "darwinState": 4,
                "latitude": 51.45076146,
                "longitude": 0.278856807,
                "operator": "SE",
                "postcode": "DA9 9NQ"
            },
            {
                "crsCode": "CFR",
                "name": "Chandlers Ford",
                "classification": "NORMAL",
                "dlrLuState": 1,
                "ojpState": 1,
                "kbState": 2,
                "darwinState": 4,
                "latitude": 50.98299772,
                "longitude": -1.384401049,
                "operator": "SW",
                "postcode": "SO53 4DD"
            },
            {
                "crsCode": "CHF",
                "name": "Church Fenton",
                "classification": "NORMAL",
                "dlrLuState": 1,
                "ojpState": 1,
                "kbState": 2,
                "darwinState": 4,
                "latitude": 53.82633993,
                "longitude": -1.227441339,
                "operator": "NT",
                "postcode": "LS24 9RA"
            },
            {
                "crsCode": "CON",
                "name": "Connel Ferry",
                "classification": "NORMAL",
                "dlrLuState": 1,
                "ojpState": 1,
                "kbState": 2,
                "darwinState": 4,
                "latitude": 56.45233144,
                "longitude": -5.385427005,
                "operator": "SR",
                "postcode": "PA37 1PA"
            },
            {
                "crsCode": "HBF",
                "name": "Hever (Brocas Farm By Bus)",
                "classification": "NORMAL",
                "dlrLuState": 1,
                "ojpState": 1,
                "kbState": 0,
                "darwinState": 4,
                "latitude": 0.0,
                "longitude": 0.0,
                "operator": "",
                "postcode": ""
            },
            {
                "crsCode": "75",
                "name": "Falkirk",
                "classification": "GROUP",
                "dlrLuState": 1,
                "ojpState": 1,
                "kbState": 0,
                "darwinState": 0,
                "latitude": 0.0,
                "longitude": 0.0,
                "operator": "",
                "postcode": ""
            },
            {
                "crsCode": "76",
                "name": "Falmouth",
                "classification": "GROUP",
                "dlrLuState": 1,
                "ojpState": 1,
                "kbState": 0,
                "darwinState": 0,
                "latitude": 0.0,
                "longitude": 0.0,
                "operator": "",
                "postcode": ""
            },
            {
                "crsCode": "77",
                "name": "Farnborough",
                "classification": "GROUP",
                "dlrLuState": 1,
                "ojpState": 1,
                "kbState": 0,
                "darwinState": 0,
                "latitude": 0.0,
                "longitude": 0.0,
                "operator": "",
                "postcode": ""
            },
            {
                "crsCode": "78",
                "name": "Folkestone",
                "classification": "GROUP",
                "dlrLuState": 1,
                "ojpState": 1,
                "kbState": 0,
                "darwinState": 0,
                "latitude": 0.0,
                "longitude": 0.0,
                "operator": "",
                "postcode": ""
            },
            {
                "crsCode": "LOF",
                "name": "London Fields",
                "classification": "LONDON",
                "dlrLuState": 1,
                "ojpState": 1,
                "kbState": 2,
                "darwinState": 4,
                "latitude": 51.5411581907,
                "longitude": -0.0577468217,
                "operator": "LO",
                "postcode": "E8 3PH"
            },
            {
                "crsCode": "HGF",
                "name": "Hag Fold",
                "classification": "NORMAL",
                "dlrLuState": 1,
                "ojpState": 1,
                "kbState": 2,
                "darwinState": 4,
                "latitude": 53.53386541,
                "longitude": -2.494828846,
                "operator": "NT",
                "postcode": "M46 9WX"
            },
            {
                "crsCode": "LPO",
                "name": "Lyme Regis via First Bus X51/53",
                "classification": "NORMAL",
                "dlrLuState": 1,
                "ojpState": 1,
                "kbState": 0,
                "darwinState": 4,
                "latitude": 0.0,
                "longitude": 0.0,
                "operator": "",
                "postcode": ""
            },
            {
                "crsCode": "DFP",
                "name": "Dublin Ferryport",
                "classification": "NORMAL",
                "dlrLuState": 1,
                "ojpState": 1,
                "kbState": 2,
                "darwinState": 0,
                "latitude": 0.0,
                "longitude": 0.0,
                "operator": "",
                "postcode": ""
            },
            {
                "crsCode": "MFL",
                "name": "Mount Florida",
                "classification": "NORMAL",
                "dlrLuState": 1,
                "ojpState": 1,
                "kbState": 2,
                "darwinState": 4,
                "latitude": 55.82679274,
                "longitude": -4.262017463,
                "operator": "SR",
                "postcode": "G41 1RR"
            },
            {
                "crsCode": "ZFD",
                "name": "Farringdon",
                "classification": "LONDON",
                "dlrLuState": 1,
                "ojpState": 1,
                "kbState": 2,
                "darwinState": 4,
                "latitude": 51.52053,
                "longitude": -0.10504,
                "operator": "LT",
                "postcode": "EC1M 6BY"
            },
            {
                "crsCode": "EFL",
                "name": "East Farleigh",
                "classification": "NORMAL",
                "dlrLuState": 1,
                "ojpState": 1,
                "kbState": 2,
                "darwinState": 4,
                "latitude": 51.25523373,
                "longitude": 0.484734574,
                "operator": "SE",
                "postcode": "ME15 0JH"
            },
            {
                "crsCode": "RAV",
                "name": "Ravenglass for Eskdale",
                "classification": "NORMAL",
                "dlrLuState": 1,
                "ojpState": 1,
                "kbState": 2,
                "darwinState": 4,
                "latitude": 54.35561861,
                "longitude": -3.408961525,
                "operator": "NT",
                "postcode": "CA18 1SW"
            },
            {
                "crsCode": "ABF",
                "name": "Ashurst Bald Face Stag (By Bus)",
                "classification": "NORMAL",
                "dlrLuState": 1,
                "ojpState": 1,
                "kbState": 0,
                "darwinState": 4,
                "latitude": 0.0,
                "longitude": 0.0,
                "operator": "",
                "postcode": ""
            },
            {
                "crsCode": "RFY",
                "name": "Rock Ferry",
                "classification": "NORMAL",
                "dlrLuState": 1,
                "ojpState": 1,
                "kbState": 2,
                "darwinState": 4,
                "latitude": 53.37289259,
                "longitude": -3.010914905,
                "operator": "ME",
                "postcode": "CH42 2AT"
            },
            {
                "crsCode": "AFV",
                "name": "Ansdell & Fairhaven",
                "classification": "NORMAL",
                "dlrLuState": 1,
                "ojpState": 1,
                "kbState": 2,
                "darwinState": 4,
                "latitude": 53.74157235,
                "longitude": -2.993056487,
                "operator": "NT",
                "postcode": "FY8 1AG"
            },
            {
                "crsCode": "NFA",
                "name": "North Fambridge",
                "classification": "NORMAL",
                "dlrLuState": 1,
                "ojpState": 1,
                "kbState": 2,
                "darwinState": 4,
                "latitude": 51.64859041,
                "longitude": 0.681672508,
                "operator": "LE",
                "postcode": "CM3 6NE"
            },
            {
                "crsCode": "ANF",
                "name": "Ashurst New Forest",
                "classification": "NORMAL",
                "dlrLuState": 1,
                "ojpState": 1,
                "kbState": 2,
                "darwinState": 4,
                "latitude": 50.88984033,
                "longitude": -1.526640531,
                "operator": "SW",
                "postcode": "SO40 7AA"
            },
            {
                "crsCode": "ASC",
                "name": "Ashchurch for Tewkesbury",
                "classification": "NORMAL",
                "dlrLuState": 1,
                "ojpState": 1,
                "kbState": 2,
                "darwinState": 4,
                "latitude": 51.99916912,
                "longitude": -2.109057444,
                "operator": "GW",
                "postcode": "GL20 8TU"
            },
            {
                "crsCode": "FAL",
                "name": "Falmouth Docks",
                "classification": "NORMAL",
                "dlrLuState": 1,
                "ojpState": 1,
                "kbState": 2,
                "darwinState": 4,
                "latitude": 50.15069317,
                "longitude": -5.056082925,
                "operator": "GW",
                "postcode": "TR11 4LT"
            },
            {
                "crsCode": "FAV",
                "name": "Faversham",
                "classification": "NORMAL",
                "dlrLuState": 1,
                "ojpState": 1,
                "kbState": 2,
                "darwinState": 4,
                "latitude": 51.31171034,
                "longitude": 0.891062265,
                "operator": "SE",
                "postcode": "ME13 8EB"
            },
            {
                "crsCode": "FAZ",
                "name": "Fazakerley",
                "classification": "NORMAL",
                "dlrLuState": 1,
                "ojpState": 1,
                "kbState": 2,
                "darwinState": 4,
                "latitude": 53.46878354,
                "longitude": -2.93545612,
                "operator": "ME",
                "postcode": "L9 9EW"
            },
            {
                "crsCode": "FBY",
                "name": "Formby",
                "classification": "NORMAL",
                "dlrLuState": 1,
                "ojpState": 1,
                "kbState": 2,
                "darwinState": 4,
                "latitude": 53.55349222,
                "longitude": -3.070916313,
                "operator": "ME",
                "postcode": "L37 2JF"
            },
            {
                "crsCode": "FCN",
                "name": "Falconwood",
                "classification": "LONDON",
                "dlrLuState": 1,
                "ojpState": 1,
                "kbState": 2,
                "darwinState": 4,
                "latitude": 51.45914359,
                "longitude": 0.078550785,
                "operator": "SE",
                "postcode": "SE9 2RN"
            },
            {
                "crsCode": "FEA",
                "name": "Featherstone",
                "classification": "NORMAL",
                "dlrLuState": 1,
                "ojpState": 1,
                "kbState": 2,
                "darwinState": 4,
                "latitude": 53.67872705,
                "longitude": -1.359437598,
                "operator": "NT",
                "postcode": "WF7 7HJ"
            },
            {
                "crsCode": "FEL",
                "name": "Feltham",
                "classification": "LONDON",
                "dlrLuState": 1,
                "ojpState": 1,
                "kbState": 2,
                "darwinState": 4,
                "latitude": 51.4479016,
                "longitude": -0.409827793,
                "operator": "SW",
                "postcode": "TW13 4BY"
            },
            {
                "crsCode": "FEN",
                "name": "Fenny Stratford",
                "classification": "NORMAL",
                "dlrLuState": 1,
                "ojpState": 1,
                "kbState": 2,
                "darwinState": 4,
                "latitude": 51.99989996,
                "longitude": -0.717672768,
                "operator": "LN",
                "postcode": "MK1 1BP"
            },
            {
                "crsCode": "FER",
                "name": "Fernhill",
                "classification": "NORMAL",
                "dlrLuState": 1,
                "ojpState": 1,
                "kbState": 2,
                "darwinState": 4,
                "latitude": 51.68649362,
                "longitude": -3.395897173,
                "operator": "AW",
                "postcode": "CF45 3PT"
            },
            {
                "crsCode": "FFA",
                "name": "Ffairfach",
                "classification": "NORMAL",
                "dlrLuState": 1,
                "ojpState": 1,
                "kbState": 2,
                "darwinState": 4,
                "latitude": 51.87247957,
                "longitude": -3.992889832,
                "operator": "AW",
                "postcode": "SA19 6UL"
            },
            {
                "crsCode": "FFD",
                "name": "Freshford",
                "classification": "NORMAL",
                "dlrLuState": 1,
                "ojpState": 1,
                "kbState": 2,
                "darwinState": 4,
                "latitude": 51.34202505,
                "longitude": -2.301023075,
                "operator": "GW",
                "postcode": "BA2 7WQ"
            },
            {
                "crsCode": "NWN",
                "name": "Newton for Hyde",
                "classification": "NORMAL",
                "dlrLuState": 1,
                "ojpState": 1,
                "kbState": 2,
                "darwinState": 4,
                "latitude": 53.45670495,
                "longitude": -2.066972742,
                "operator": "NT",
                "postcode": "SK14 2PJ"
            },
            {
                "crsCode": "FGH",
                "name": "Fishguard Harbour",
                "classification": "NORMAL",
                "dlrLuState": 1,
                "ojpState": 1,
                "kbState": 2,
                "darwinState": 4,
                "latitude": 52.01156,
                "longitude": -4.98567,
                "operator": "AW",
                "postcode": "SA64 0BU"
            },
            {
                "crsCode": "FGT",
                "name": "Faygate",
                "classification": "NORMAL",
                "dlrLuState": 1,
                "ojpState": 1,
                "kbState": 2,
                "darwinState": 4,
                "latitude": 51.09588376,
                "longitude": -0.26302061,
                "operator": "SN",
                "postcode": "RH12 4SJ"
            },
            {
                "crsCode": "FGW",
                "name": "Fishguard & Goodwick",
                "classification": "NORMAL",
                "dlrLuState": 1,
                "ojpState": 1,
                "kbState": 2,
                "darwinState": 4,
                "latitude": 52.004112,
                "longitude": -4.9948377,
                "operator": "AW",
                "postcode": "SA64 0DG"
            },
            {
                "crsCode": "SBF",
                "name": "St Budeaux Ferry Road",
                "classification": "NORMAL",
                "dlrLuState": 1,
                "ojpState": 1,
                "kbState": 2,
                "darwinState": 4,
                "latitude": 50.40138693,
                "longitude": -4.186644684,
                "operator": "GW",
                "postcode": "PL5 1JQ"
            },
            {
                "crsCode": "FIL",
                "name": "Filey",
                "classification": "NORMAL",
                "dlrLuState": 1,
                "ojpState": 1,
                "kbState": 2,
                "darwinState": 4,
                "latitude": 54.20986844,
                "longitude": -0.293850452,
                "operator": "NT",
                "postcode": "YO14 9PE"
            },
            {
                "crsCode": "FIN",
                "name": "Finstock",
                "classification": "NORMAL",
                "dlrLuState": 1,
                "ojpState": 1,
                "kbState": 2,
                "darwinState": 4,
                "latitude": 51.85279021,
                "longitude": -1.469345759,
                "operator": "GW",
                "postcode": "OX7 3AW"
            },
            {
                "crsCode": "FIT",
                "name": "Filton Abbey Wood",
                "classification": "NORMAL",
                "dlrLuState": 1,
                "ojpState": 1,
                "kbState": 2,
                "darwinState": 4,
                "latitude": 51.50493962,
                "longitude": -2.562437257,
                "operator": "GW",
                "postcode": "BS34 7JW"
            },
            {
                "crsCode": "BAZ",
                "name": "Bala Stryd Fawr / High St",
                "classification": "NORMAL",
                "dlrLuState": 1,
                "ojpState": 1,
                "kbState": 2,
                "darwinState": 4,
                "latitude": 0.0,
                "longitude": 0.0,
                "operator": "",
                "postcode": ""
            }
        ]
    }
}